[
  {
    "name": "Whispering Manes Therapeutic Riding Center",
    "address": "6105 SW 125th Ave, Miami, FL 33183, USA",
    "phone": "(305) 596-4204",
    "website": "http://www.whisperingmanes.org/",
    "types": [],
    "location": {
      "lat": 25.7098488,
      "lng": -80.39627999999999
    },
    "rating": 5,
    "user_ratings_total": 59,
    "business_status": "OPERATIONAL",
    "google_place_id": "ChIJK5yw4pDA2YgRKsi1I5mnHlA"
  },
  {
    "name": "Angel Hugs Foundation",
    "address": "15505 Miami Lakeway N, Miami Lakes, FL 33014, USA",
    "phone": "(954) 614-4432",
    "website": "https://angelhugsfoundation.org/contact/",
    "types": [],
    "location": {
      "lat": 25.9164628,
      "lng": -80.30126
    },
    "rating": null,
    "user_ratings_total": null,
    "business_status": "OPERATIONAL",
    "google_place_id": "ChIJ38ylhzel2YgRLNbezqh5eGA"
  },
  {
    "name": "Give Back for Special Equestrians",
    "address": "220 Alhambra Cir, Coral Gables, FL 33134, USA",
    "phone": "(305) 608-5350",
    "website": "https://www.givebackeq.org/contact-us",
    "types": [],
    "location": {
      "lat": 25.7518055,
      "lng": -80.2591709
    },
    "rating": null,
    "user_ratings_total": null,
    "business_status": "OPERATIONAL",
    "google_place_id": "ChIJAVWskZm32YgRS4DThrOLJLQ"
  },
  {
    "name": "Bee Positive Behavior Services Inc.",
    "address": "10661 N Kendall Dr Suite 228, Miami, FL 33176, USA",
    "phone": "(305) 903-3505",
    "website": "http://www.beepositivebehaviorservices.com/",
    "types": [],
    "location": {
      "lat": 25.6880114,
      "lng": -80.3653865
    },
    "rating": 5,
    "user_ratings_total": 5,
    "business_status": "OPERATIONAL",
    "google_place_id": "ChIJMVgWdTPH2YgRUgMXrbQnqvE"
  },
  {
    "name": "Humane Society Of Greater Miami North",
    "address": "16101 W Dixie Hwy, North Miami Beach, FL 33160, USA",
    "phone": "(305) 696-0800",
    "website": "https://www.humanesocietymiami.org/",
    "types": [],
    "location": {
      "lat": 25.924648,
      "lng": -80.1553234
    },
    "rating": 4.4,
    "user_ratings_total": 2336,
    "business_status": "OPERATIONAL",
    "google_place_id": "ChIJW-0zWoLE2YgRf1pGjZvgrXY"
  },
  {
    "name": "Autism Specialty Group",
    "address": "64 NW 54th St #103, Miami, FL 33127, USA",
    "phone": "(305) 767-1924",
    "website": "https://www.autismspecialtygroup.com/",
    "types": [],
    "location": {
      "lat": 25.8249959,
      "lng": -80.1971277
    },
    "rating": 3.9,
    "user_ratings_total": 7,
    "business_status": "OPERATIONAL",
    "google_place_id": "ChIJBQBwWPS02YgRqbOgSiE4yek"
  },
  {
    "name": "Global Speech and Rehab Services, LLC",
    "address": "909 N Miami Beach Blvd STE 503, North Miami Beach, FL 33162, USA",
    "phone": "(786) 623-4053",
    "website": "http://www.globalspeechandrehab.com/",
    "types": [],
    "location": {
      "lat": 25.928238,
      "lng": -80.1813888
    },
    "rating": 5,
    "user_ratings_total": 3,
    "business_status": "OPERATIONAL",
    "google_place_id": "ChIJAYz0ifGt2YgRkYemSoz0wOY"
  },
  {
    "name": "Psychological Service Dogs, INC",
    "address": "1908 Howell Branch Rd, Winter Park, FL 32792, USA",
    "phone": null,
    "website": "https://psychologicalservicedogs.org/",
    "types": [],
    "location": {
      "lat": 28.6248439,
      "lng": -81.3270701
    },
    "rating": null,
    "user_ratings_total": null,
    "business_status": "OPERATIONAL",
    "google_place_id": "ChIJm_tq8hRv54gRgdEPiQqz5tA"
  },
  {
    "name": "C.A.R.E. Foundation",
    "address": "4609 W Ponkan Rd, Apopka, FL 32712, USA",
    "phone": "(407) 247-8948",
    "website": "https://www.thecarefoundation.org/",
    "types": [],
    "location": {
      "lat": 28.7301158,
      "lng": -81.5872116
    },
    "rating": 4.7,
    "user_ratings_total": 190,
    "business_status": "OPERATIONAL",
    "google_place_id": "ChIJQxRChtue54gRUxaUT8PJc70"
  },
  {
    "name": "Emotional Support Animal Letter",
    "address": "1654 N Semoran Blvd #148A, Orlando, FL 32807, USA",
    "phone": "(321) 392-6420",
    "website": "http://www.esahousingletter.com/",
    "types": [],
    "location": {
      "lat": 28.566927,
      "lng": -81.31153139999999
    },
    "rating": 4.6,
    "user_ratings_total": 10,
    "business_status": "OPERATIONAL",
    "google_place_id": "ChIJR8j3l5hl54gRWXIo398Qnl4"
  },
  {
    "name": "Freedom Ride Inc",
    "address": "3919 Bay Lake Rd, Orlando, FL 32808, USA",
    "phone": "(407) 293-0411",
    "website": "http://www.freedomride.com/",
    "types": [],
    "location": {
      "lat": 28.5889595,
      "lng": -81.422771
    },
    "rating": 4.4,
    "user_ratings_total": 134,
    "business_status": "OPERATIONAL",
    "google_place_id": "ChIJ26mB9Ltw54gR0XNzHirzgu4"
  },
  {
    "name": "Crossroads Corral",
    "address": "205 Lazy Acres Ln, Longwood, FL 32750, USA",
    "phone": "(407) 603-6325",
    "website": "http://www.crossroadscorral.org/",
    "types": [],
    "location": {
      "lat": 28.716591,
      "lng": -81.3497278
    },
    "rating": 4.8,
    "user_ratings_total": 20,
    "business_status": "OPERATIONAL",
    "google_place_id": "ChIJl7PDLWcN54gR2ePpxBvTF-A"
  },
  {
    "name": "LifeSkills Sensory Integration Specialists",
    "address": "100 E Sybelia Ave Suite 120, Maitland, FL 32751, USA",
    "phone": "(407) 629-9455",
    "website": "http://www.lifeskillscenter.com/",
    "types": [],
    "location": {
      "lat": 28.6310755,
      "lng": -81.3649906
    },
    "rating": 4,
    "user_ratings_total": 11,
    "business_status": "OPERATIONAL",
    "google_place_id": "ChIJZyh0WPZv54gRENL01LkP0O0"
  },
  {
    "name": "Hop Skip and a Jump Pediatric Therapy",
    "address": "886 S Dillard St, Winter Garden, FL 34787, USA",
    "phone": "(407) 461-1998",
    "website": "http://www.orlandokidstherapy.com/",
    "types": [],
    "location": {
      "lat": 28.5540176,
      "lng": -81.583957
    },
    "rating": null,
    "user_ratings_total": null,
    "business_status": "OPERATIONAL",
    "google_place_id": "ChIJyYemw22D54gR4OoqQCmn1jk"
  },
  {
    "name": "Dip'n Dogs Canine Swimming",
    "address": "1960 King Arthurs Ct, Winter Park, FL 32792, USA",
    "phone": "(407) 227-0030",
    "website": "http://www.dipndogs.com/",
    "types": [],
    "location": {
      "lat": 28.6176391,
      "lng": -81.3183877
    },
    "rating": 4.9,
    "user_ratings_total": 53,
    "business_status": "OPERATIONAL",
    "google_place_id": "ChIJLa4kR2tw54gRMgsIJMDuw7I"
  },
  {
    "name": "Encompass Health Rehabilitation Hospital of Altamonte Springs",
    "address": "831 S State Rd 434, Altamonte Springs, FL 32714, USA",
    "phone": "(407) 587-8600",
    "website": "https://www.encompasshealth.com/locations/altamonte-springs-rehab?utm_source=google&utm_medium=organic&utm_campaign=gbp",
    "types": [],
    "location": {
      "lat": 28.6461278,
      "lng": -81.4130886
    },
    "rating": 4.2,
    "user_ratings_total": 261,
    "business_status": "OPERATIONAL",
    "google_place_id": "ChIJtztDPjtx54gRyn-62OHWdN0"
  },
  {
    "name": "SatoriMD",
    "address": "8751 Commodity Cir Unit 10b, Orlando, FL 32819, USA",
    "phone": "(321) 248-4056",
    "website": "https://www.satorimentalhealth.com/",
    "types": [],
    "location": {
      "lat": 28.4444603,
      "lng": -81.4288427
    },
    "rating": 5,
    "user_ratings_total": 3,
    "business_status": "OPERATIONAL",
    "google_place_id": "ChIJlR-8D_x_54gRcup7cmqUEB4"
  },
  {
    "name": "ABA Centers of Florida",
    "address": "2145 Metrocenter Blvd #350, Orlando, FL 32835, USA",
    "phone": "(877) 685-2783",
    "website": "https://abacentersfl.com/?utm_source=google&utm_medium=organic&utm_campaign=gmb-orlando",
    "types": [],
    "location": {
      "lat": 28.5190094,
      "lng": -81.46781299999999
    },
    "rating": 3.4,
    "user_ratings_total": 7,
    "business_status": "OPERATIONAL",
    "google_place_id": "ChIJjUmbSLJ554gRUAanT4T5iNA"
  },
  {
    "name": "AdventHealth Sports Med and Rehab Pediatrics Mills Park",
    "address": "1724 N Mills Ave Suite 400, Orlando, FL 32803, USA",
    "phone": "(407) 303-1575",
    "website": "https://www.adventhealth.com/sports-medicine-and-rehab/adventhealth-sports-med-and-rehab-central-florida",
    "types": [],
    "location": {
      "lat": 28.567225,
      "lng": -81.3647529
    },
    "rating": 4.8,
    "user_ratings_total": 78,
    "business_status": "OPERATIONAL",
    "google_place_id": "ChIJHSMpGBxx54gRq9L5qc3RIk8"
  },
  {
    "name": "Special Hearts Farm",
    "address": "1100 E Maple St, Winter Garden, FL 34787, USA",
    "phone": "(407) 347-8431",
    "website": "https://www.specialheartsfarm.com/",
    "types": [],
    "location": {
      "lat": 28.5612302,
      "lng": -81.5679901
    },
    "rating": 4.9,
    "user_ratings_total": 19,
    "business_status": "OPERATIONAL",
    "google_place_id": "ChIJJfPzIAWD54gRe0fvr1e1BMM"
  },
  {
    "name": "Angels for kids and Families on call",
    "address": "3463 E Colonial Dr G-02, Orlando, FL 32803, USA",
    "phone": "(407) 730-7983",
    "website": "http://www.angelsforkidsoncall.net/",
    "types": [],
    "location": {
      "lat": 28.5545533,
      "lng": -81.3415314
    },
    "rating": 4.3,
    "user_ratings_total": 167,
    "business_status": "OPERATIONAL",
    "google_place_id": "ChIJb0i6uF9_54gReyD49aNWEwQ"
  },
  {
    "name": "ASGO",
    "address": "1650 Sand Lake Rd Ste 240, Orlando, FL 32809, USA",
    "phone": "(407) 855-0235",
    "website": "http://www.asgo.org/",
    "types": [],
    "location": {
      "lat": 28.4497838,
      "lng": -81.3995669
    },
    "rating": 4.2,
    "user_ratings_total": 29,
    "business_status": "OPERATIONAL",
    "google_place_id": "ChIJ7VD2nmqH3YgRlpvN4K18LDc"
  },
  {
    "name": "Renaissance Healthcare Group",
    "address": "216 Pasadena Pl, Orlando, FL 32803, USA",
    "phone": "(407) 246-5250",
    "website": "http://pasadenavilla.com/",
    "types": [],
    "location": {
      "lat": 28.5573864,
      "lng": -81.3748083
    },
    "rating": 5,
    "user_ratings_total": 1,
    "business_status": "OPERATIONAL",
    "google_place_id": "ChIJY_cCOfJ654gRr1Ko3QKmOMo"
  },
  {
    "name": "Satori Mental Health - Ketamine Treatment Orlando",
    "address": "1654 N Semoran Blvd ste 148c, Orlando, FL 32807, USA",
    "phone": "(321) 248-4056",
    "website": "https://www.satorimentalhealth.com/",
    "types": [],
    "location": {
      "lat": 28.566927,
      "lng": -81.31153139999999
    },
    "rating": null,
    "user_ratings_total": null,
    "business_status": "OPERATIONAL",
    "google_place_id": "ChIJaSiU3ixl54gRpLfvo2mbvvU"
  },
  {
    "name": "Quantum Leap Farm Inc",
    "address": "10401 Woodstock Rd, Odessa, FL 33556, USA",
    "phone": "(813) 920-9250",
    "website": "http://www.quantumleapfarm.org/",
    "types": [],
    "location": {
      "lat": 28.1577854,
      "lng": -82.6026842
    },
    "rating": 4.9,
    "user_ratings_total": 103,
    "business_status": "OPERATIONAL",
    "google_place_id": "ChIJOTKngK2VwogR1SWT0g0N2Ng"
  },
  {
    "name": "Bakas Equestrian Center",
    "address": "11510 Whisper Lake Trail, Tampa, FL 33626, USA",
    "phone": "(813) 264-3890",
    "website": "https://www.bakasequestriancenter.com/",
    "types": [],
    "location": {
      "lat": 28.0723226,
      "lng": -82.6176382
    },
    "rating": 5,
    "user_ratings_total": 21,
    "business_status": "OPERATIONAL",
    "google_place_id": "ChIJ1TXDTBfrwogR2BI24WRdSoU"
  },
  {
    "name": "Traverse",
    "address": "11810 Blue Tick Rd, Odessa, FL 33556, USA",
    "phone": "(813) 924-0488",
    "website": "https://www.traversetherapeuticriding.org/",
    "types": [],
    "location": {
      "lat": 28.1541377,
      "lng": -82.62613089999999
    },
    "rating": 3.7,
    "user_ratings_total": 3,
    "business_status": "OPERATIONAL",
    "google_place_id": "ChIJP0FO2V2UwogRnl5HbY-3IIw"
  },
  {
    "name": "TherHappy Therapy Services",
    "address": "13049 W Linebaugh Ave #102, Tampa, FL 33626, USA",
    "phone": "(813) 854-2779",
    "website": "http://therhappy.org/",
    "types": [],
    "location": {
      "lat": 28.058432,
      "lng": -82.641904
    },
    "rating": 4.5,
    "user_ratings_total": 6,
    "business_status": "OPERATIONAL",
    "google_place_id": "ChIJZelR33jrwogRZdqObRXH0Qw"
  },
  {
    "name": "Valor Service Dogs",
    "address": "15006 McGrady Rd, Wimauma, FL 33598, USA",
    "phone": "(813) 634-3232",
    "website": "http://www.valorservicedogs.org/",
    "types": [],
    "location": {
      "lat": 27.7571378,
      "lng": -82.2810164
    },
    "rating": 4.3,
    "user_ratings_total": 19,
    "business_status": "OPERATIONAL",
    "google_place_id": "ChIJQzB_PC3LwogRuyfPMHpRMqA"
  },
  {
    "name": "Professional Pets Florida LLC",
    "address": "1218 Millennium Pkwy Suite 1-11, Brandon, FL 33511, USA",
    "phone": "(516) 880-5558",
    "website": "http://www.professionalpets.net/",
    "types": [],
    "location": {
      "lat": 27.9294793,
      "lng": -82.30121729999999
    },
    "rating": 4.9,
    "user_ratings_total": 204,
    "business_status": "OPERATIONAL",
    "google_place_id": "ChIJefai1jNnK6YRqR-9uWHQNEI"
  },
  {
    "name": "Autism Acceptance Center",
    "address": "5483 W Waters Ave Suite 1200N, Tampa, FL 33634, USA",
    "phone": "(813) 879-6770",
    "website": "https://aastampa.org/contact/",
    "types": [],
    "location": {
      "lat": 28.0289019,
      "lng": -82.5344604
    },
    "rating": 5,
    "user_ratings_total": 3,
    "business_status": "OPERATIONAL",
    "google_place_id": "ChIJAQBMhePDwogR3IQ1JrmfFP0"
  },
  {
    "name": "Autism Spectrum Counseling",
    "address": "4100 W Kennedy Blvd # 230, Tampa, FL 33609, USA",
    "phone": "(813) 553-7910",
    "website": "http://www.autism-spectrum-counseling.com/",
    "types": [],
    "location": {
      "lat": 27.9445726,
      "lng": -82.5126238
    },
    "rating": 5,
    "user_ratings_total": 6,
    "business_status": "OPERATIONAL",
    "google_place_id": "ChIJFd-1oAbDwogRS3H0lXMiBRE"
  },
  {
    "name": "BASS ABA Therapy - Carrollwood",
    "address": "3910 Northdale Blvd # 210, Tampa, FL 33624, USA",
    "phone": "(877) 823-4283",
    "website": "http://www.bassautism.com/",
    "types": [],
    "location": {
      "lat": 28.0952,
      "lng": -82.509019
    },
    "rating": 4,
    "user_ratings_total": 4,
    "business_status": "OPERATIONAL",
    "google_place_id": "ChIJqQsKHi2_wogRkMSZrwXN148"
  },
  {
    "name": "Tampa Bay Autism Center",
    "address": "14214 N Nebraska Ave, Tampa, FL 33613, USA",
    "phone": "(813) 330-0311",
    "website": "https://tbautismcenter.org/",
    "types": [],
    "location": {
      "lat": 28.0762087,
      "lng": -82.4535945
    },
    "rating": null,
    "user_ratings_total": null,
    "business_status": "OPERATIONAL",
    "google_place_id": "ChIJYce2_H7HwogRSR1li4otwi4"
  },
  {
    "name": "Butterfly Effects - ABA Therapy for Autism",
    "address": "10004 N Dale Mabry Hwy Suite 102, Tampa, FL 33618, USA",
    "phone": "(888) 880-9270",
    "website": "https://butterflyeffects.com/locations/florida/tampa/center/",
    "types": [],
    "location": {
      "lat": 28.040663,
      "lng": -82.50598320000002
    },
    "rating": 5,
    "user_ratings_total": 3,
    "business_status": "OPERATIONAL",
    "google_place_id": "ChIJAyt_UA7BwogRZ7xsD5BrtFw"
  },
  {
    "name": "Tampa Counseling and Wellness",
    "address": "2814 W Dr Martin Luther King Jr Blvd #201, Tampa, FL 33607, USA",
    "phone": "(813) 520-2807",
    "website": "http://www.tampacounselingandwellness.com/",
    "types": [],
    "location": {
      "lat": 27.9809045,
      "lng": -82.490471
    },
    "rating": 4.8,
    "user_ratings_total": 18,
    "business_status": "OPERATIONAL",
    "google_place_id": "ChIJE9IECqbBwogRSjj8ZwBSLo8"
  },
  {
    "name": "Joshua E. Shannon, LMHC PhD",
    "address": "1000 N Ashley Dr #512, Tampa, FL 33602, USA",
    "phone": "(877) 957-3422",
    "website": "http://www.drjoshuashannon.com/",
    "types": [],
    "location": {
      "lat": 27.9522355,
      "lng": -82.46231360000002
    },
    "rating": 4.8,
    "user_ratings_total": 28,
    "business_status": "OPERATIONAL",
    "google_place_id": "ChIJm6GC_QPDwogRXFqdGsRMrAA"
  },
  {
    "name": "Equusolutions",
    "address": "2625 Keystone Rd, Tarpon Springs, FL 34688, USA",
    "phone": "(727) 467-4213",
    "website": "https://equusolutions.com/contact-us/",
    "types": [],
    "location": {
      "lat": 28.1523431,
      "lng": -82.7114878
    },
    "rating": null,
    "user_ratings_total": null,
    "business_status": "OPERATIONAL",
    "google_place_id": "ChIJWa31YfWSwogRXt-czgiIQk8"
  },
  {
    "name": "MY ESA Therapist | Emotional Support Animal Letter",
    "address": "225 W Forsyth St 5TH FL, Jacksonville, FL 32202, USA",
    "phone": "(888) 412-4041",
    "website": "https://myesatherapist.com/florida/",
    "types": [],
    "location": {
      "lat": 30.3277591,
      "lng": -81.6607611
    },
    "rating": null,
    "user_ratings_total": null,
    "business_status": "OPERATIONAL",
    "google_place_id": "ChIJMcdXwW-35YgRAgpY2JX0Jxo"
  },
  {
    "name": "Horse Sense & Sensitivity",
    "address": "2202 Bishop Estates Rd, Jacksonville, FL 32259, USA",
    "phone": "(904) 257-6612",
    "website": "http://www.horsesensejax.org/",
    "types": [],
    "location": {
      "lat": 30.1245853,
      "lng": -81.60607290000002
    },
    "rating": 4.9,
    "user_ratings_total": 41,
    "business_status": "OPERATIONAL",
    "google_place_id": "ChIJ6xyjBJiz5YgRrLHTXSguEnA"
  },
  {
    "name": "Life Unbridled Sports Psychology and Mental Health Therapy",
    "address": "86 S Roscoe Blvd, Ponte Vedra Beach, FL 32082, USA",
    "phone": "(904) 515-3673",
    "website": "http://lifeunbridledpvb.com/",
    "types": [],
    "location": {
      "lat": 30.1659966,
      "lng": -81.3956242
    },
    "rating": null,
    "user_ratings_total": null,
    "business_status": "OPERATIONAL",
    "google_place_id": "ChIJE_Lts_035IgRXBjkveI5i_I"
  },
  {
    "name": "NFES/H.O.R.S.E Therapies",
    "address": "13611 Normandy Blvd, Jacksonville, FL 32221, USA",
    "phone": "(904) 422-1802",
    "website": "https://jaxhorsetherapies.org/nfes",
    "types": [],
    "location": {
      "lat": 30.2410971,
      "lng": -81.90308680000001
    },
    "rating": null,
    "user_ratings_total": null,
    "business_status": "OPERATIONAL",
    "google_place_id": "ChIJqS8_XGXr5YgREBYYmwCBOE8"
  },
  {
    "name": "Shades of Autism Parent Network, Inc.",
    "address": "2736 University Blvd W #5, Jacksonville, FL 32217, USA",
    "phone": "(904) 206-7166",
    "website": "http://www.shadesapn.org/",
    "types": [],
    "location": {
      "lat": 30.2603145,
      "lng": -81.63043689999999
    },
    "rating": 5,
    "user_ratings_total": 1,
    "business_status": "OPERATIONAL",
    "google_place_id": "ChIJh2qyDp235YgRG84mLb4KGlM"
  },
  {
    "name": "Exceptional Therapies - Jacksonville - Applied Behavior Analysis",
    "address": "6817 Southpoint Pkwy Unit 2001 /2002, Jacksonville, FL 32256, USA",
    "phone": "(904) 895-5865",
    "website": "http://www.exceptionaltherapies.com/",
    "types": [],
    "location": {
      "lat": 30.2593982,
      "lng": -81.5885929
    },
    "rating": 5,
    "user_ratings_total": 10,
    "business_status": "OPERATIONAL",
    "google_place_id": "ChIJFXmEnCbL5YgRTo4BbcBpSfo"
  },
  {
    "name": "Hope Haven",
    "address": "4600 Beach Blvd, Jacksonville, FL 32207, USA",
    "phone": "(904) 346-5100",
    "website": "http://www.hope-haven.org/",
    "types": [],
    "location": {
      "lat": 30.2979268,
      "lng": -81.6193945
    },
    "rating": 4.2,
    "user_ratings_total": 24,
    "business_status": "OPERATIONAL",
    "google_place_id": "ChIJxUAxJGS25YgRJz09VrCgTOo"
  },
  {
    "name": "Blue Care Behavior Therapy",
    "address": "1616 Jork Rd Ste 401-402, Jacksonville, FL 32207, USA",
    "phone": "(904) 662-7093",
    "website": "https://bluecaretherapy.com/",
    "types": [],
    "location": {
      "lat": 30.3094381,
      "lng": -81.6126129
    },
    "rating": 5,
    "user_ratings_total": 13,
    "business_status": "OPERATIONAL",
    "google_place_id": "ChIJpcybUU2pvo0RzFzq9dWUn5Y"
  },
  {
    "name": "UF Health Center for Autism and Related Disabilities - Dupont Station",
    "address": "6271 St Augustine Rd Suite 1, Jacksonville, FL 32217, USA",
    "phone": "(904) 633-0760",
    "website": "https://ufhealthjax.org/locations/uf-health-center-for-autism-and-related-disabilities-dupont-station",
    "types": [],
    "location": {
      "lat": 30.2570676,
      "lng": -81.62517830000002
    },
    "rating": 1,
    "user_ratings_total": 7,
    "business_status": "OPERATIONAL",
    "google_place_id": "ChIJHztyY3TJ5YgRwEWcP5IkDjE"
  },
  {
    "name": "Tallahassee TMS",
    "address": "1407 M D Ln, Tallahassee, FL 32308, USA",
    "phone": "(850) 329-2076",
    "website": "https://tallahasseetms.com/",
    "types": [],
    "location": {
      "lat": 30.4587007,
      "lng": -84.2493226
    },
    "rating": 5,
    "user_ratings_total": 2,
    "business_status": "OPERATIONAL",
    "google_place_id": "ChIJuUD4rgJf7IgR3crhatx3XXM"
  },
  {
    "name": "Mosaic Creative Counseling",
    "address": "1840 Fiddler Ct, Tallahassee, FL 32308, USA",
    "phone": "(850) 542-1212",
    "website": "http://mosaiccreativecounseling.com/",
    "types": [],
    "location": {
      "lat": 30.4756498,
      "lng": -84.22768800000001
    },
    "rating": 4.6,
    "user_ratings_total": 11,
    "business_status": "OPERATIONAL",
    "google_place_id": "ChIJfbXIv8dZ7IgR5Q8wx9wMQZs"
  },
  {
    "name": "Fat Cat Cafe",
    "address": "2901 E Park Ave, Tallahassee, FL 32301, USA",
    "phone": "(850) 296-9454",
    "website": "https://www.fatcatcafetally.com/",
    "types": [],
    "location": {
      "lat": 30.4414219,
      "lng": -84.22904849999999
    },
    "rating": 4.8,
    "user_ratings_total": 296,
    "business_status": "OPERATIONAL",
    "google_place_id": "ChIJldn3XKtf7IgRyShhvG42x9s"
  },
  {
    "name": "Villas at Killearn Lakes",
    "address": "8213 Killearn Lake Ter, Tallahassee, FL 32312, USA",
    "phone": "(850) 391-1754",
    "website": "http://www.villasatkillearnlakes.com/",
    "types": [],
    "location": {
      "lat": 30.5820826,
      "lng": -84.22719049999999
    },
    "rating": 4.8,
    "user_ratings_total": 45,
    "business_status": "OPERATIONAL",
    "google_place_id": "ChIJAQAAo6tZ7IgRsdk2G1Zmel8"
  },
  {
    "name": "Asperger Friends",
    "address": "4228 Oak Run Ln, Tallahassee, FL 32317, USA",
    "phone": "(850) 384-3599",
    "website": "https://www.aspergerfriends.org/",
    "types": [],
    "location": {
      "lat": 30.4700839,
      "lng": -84.19885099999999
    },
    "rating": null,
    "user_ratings_total": null,
    "business_status": "OPERATIONAL",
    "google_place_id": "ChIJX9L4tN1f7IgRivDYKpiLGWk"
  },
  {
    "name": "Autism Navigator, LLC.",
    "address": "1400 Village Square Blvd Suite #3-157, Tallahassee, FL 32312, USA",
    "phone": "(844) 427-3457",
    "website": "http://autismnavigator.com/",
    "types": [],
    "location": {
      "lat": 30.5124206,
      "lng": -84.248785
    },
    "rating": null,
    "user_ratings_total": null,
    "business_status": "OPERATIONAL",
    "google_place_id": "ChIJA55IocBY7IgRZMghcAqutdU"
  },
  {
    "name": "FSU Center For Autism",
    "address": "2312 Killearn Center Blvd, Tallahassee, FL 32309, USA",
    "phone": null,
    "website": "http://fsucard.com/",
    "types": [],
    "location": {
      "lat": 30.5043428,
      "lng": -84.2414786
    },
    "rating": 5,
    "user_ratings_total": 1,
    "business_status": "OPERATIONAL",
    "google_place_id": "ChIJIQW54Xf17IgRf9NY-r3gBks"
  },
  {
    "name": "FSU Autism Institute",
    "address": "Building A, 2312 Killearn Center Blvd, Tallahassee, FL 32309, USA",
    "phone": null,
    "website": "https://med.fsu.edu/autisminstitute/home",
    "types": [],
    "location": {
      "lat": 30.50461,
      "lng": -84.2405519
    },
    "rating": null,
    "user_ratings_total": null,
    "business_status": "OPERATIONAL",
    "google_place_id": "ChIJAQnZfc9Y7IgRPBPLsIJhuhI"
  },
  {
    "name": "Scent Evidence K9",
    "address": "2813 Industrial Plaza Dr, Tallahassee, FL 32301, USA",
    "phone": "(850) 272-6950",
    "website": "https://scentevidencek9.com/",
    "types": [],
    "location": {
      "lat": 30.4513741,
      "lng": -84.2280031
    },
    "rating": 5,
    "user_ratings_total": 1,
    "business_status": "OPERATIONAL",
    "google_place_id": "ChIJb1JK4gFf7IgR9NW-E7Q4v3g"
  },
  {
    "name": "Animal Emergency Hospital Volusia",
    "address": "696 S Yonge St suite d, Ormond Beach, FL 32174, USA",
    "phone": "(386) 252-0206",
    "website": "https://animalervolusia.com/",
    "types": [],
    "location": {
      "lat": 29.26518009999999,
      "lng": -81.05249069999999
    },
    "rating": 3.5,
    "user_ratings_total": 866,
    "business_status": "OPERATIONAL",
    "google_place_id": "ChIJkxoMArHb5ogRqhLs-WeZsCc"
  },
  {
    "name": "Pura Vida Chiropractic LLC",
    "address": "3959 S Nova Rd # 9, Port Orange, FL 32127, USA",
    "phone": "(727) 220-6778",
    "website": "http://www.mypuravidachiro.com/",
    "types": [],
    "location": {
      "lat": 29.1187547,
      "lng": -80.9980456
    },
    "rating": 5,
    "user_ratings_total": 48,
    "business_status": "OPERATIONAL",
    "google_place_id": "ChIJRcR5foLZ5ogR7pVsCzbTB-E"
  },
  {
    "name": "Whispering Meadows Ranch",
    "address": "5011 John Anderson Hwy, Flagler Beach, FL 32136, USA",
    "phone": "(386) 439-3195",
    "website": "https://www.whisperingmeadowsranch.org/equine-programs/",
    "types": [],
    "location": {
      "lat": 29.4303213,
      "lng": -81.1237508
    },
    "rating": 4.8,
    "user_ratings_total": 38,
    "business_status": "OPERATIONAL",
    "google_place_id": "ChIJpbYAwKbB5ogR1Sc5vzsvqC8"
  },
  {
    "name": "Easterseals at Edgar's Farm",
    "address": "3804 Pioneer Trail, New Smyrna Beach, FL 32168, USA",
    "phone": "(386) 262-8538",
    "website": "https://www.easterseals.com/necfl/",
    "types": [],
    "location": {
      "lat": 29.046012,
      "lng": -81.0595536
    },
    "rating": 4.8,
    "user_ratings_total": 6,
    "business_status": "OPERATIONAL",
    "google_place_id": "ChIJoacnDQon54gRIfBWFd_PfjA"
  },
  {
    "name": "Mosaic Psychiatry",
    "address": "208 Booth Rd Suite D, Ormond Beach, FL 32174, USA",
    "phone": "(407) 906-3755",
    "website": "https://www.mosaicpsychiatry.com/",
    "types": [],
    "location": {
      "lat": 29.253721,
      "lng": -81.12109629999999
    },
    "rating": 4.9,
    "user_ratings_total": 30,
    "business_status": "OPERATIONAL",
    "google_place_id": "ChIJHyTurWLd5ogRbWs3QQDiv7w"
  },
  {
    "name": "HOPE - Horses Helping People",
    "address": "9722 SW 153rd Ave, Archer, FL 32618, USA",
    "phone": "(352) 495-0533",
    "website": "http://www.horseshelpingpeople.org/",
    "types": [],
    "location": {
      "lat": 29.5144111,
      "lng": -82.4468136
    },
    "rating": 4.8,
    "user_ratings_total": 4,
    "business_status": "OPERATIONAL",
    "google_place_id": "ChIJy4GwHeWW6IgRwMKSVQmr3Kk"
  },
  {
    "name": "Gainesville Riding through Equine-assisted Activities and Therapy",
    "address": "9816 N W 171st Terrace, Alachua, FL 32615, USA",
    "phone": "(352) 317-3206",
    "website": "http://gainesvillehorseassistedtherapy.org/",
    "types": [],
    "location": {
      "lat": 29.746108,
      "lng": -82.5260419
    },
    "rating": 5,
    "user_ratings_total": 2,
    "business_status": "OPERATIONAL",
    "google_place_id": "ChIJxTgfLjG46IgR4Hw2UFG463Y"
  },
  {
    "name": "The Florida OCD Autism and Anxiety Treatment Center (FLOAAT Center)",
    "address": "5211 SW 91st Terrace suite f, Gainesville, FL 32608, USA",
    "phone": "(352) 642-6008",
    "website": "https://www.floaatcenter.com/?utm_source=organic&utm_medium=gmb&utm_campaign=1seo_gmb",
    "types": [],
    "location": {
      "lat": 29.6060762,
      "lng": -82.4391198
    },
    "rating": 5,
    "user_ratings_total": 15,
    "business_status": "OPERATIONAL",
    "google_place_id": "ChIJvy1u8p286IgRV1DnaKuBIqI"
  },
  {
    "name": "UF Health Center for Autism and Neurodevelopment",
    "address": "4101 NW 89 Blvd, Gainesville, FL 32606, USA",
    "phone": "(352) 733-1030",
    "website": "https://ufhealth.org/locations/uf-health-center-for-autism-and-neurodevelopment?utm_source=pg-google&utm_medium=organic&utm_campaign=pg-listings",
    "types": [],
    "location": {
      "lat": 29.6917245,
      "lng": -82.4359504
    },
    "rating": 2,
    "user_ratings_total": 4,
    "business_status": "OPERATIONAL",
    "google_place_id": "ChIJv6492M276IgRIzCcZ15QKBU"
  },
  {
    "name": "UF Center for Autism and Related Disabilities",
    "address": "4101 NW 89 Blvd, Gainesville, FL 32606, USA",
    "phone": "(352) 265-2230",
    "website": "http://www.card.ufl.edu/",
    "types": [],
    "location": {
      "lat": 29.6917164,
      "lng": -82.43594039999999
    },
    "rating": 2.5,
    "user_ratings_total": 2,
    "business_status": "OPERATIONAL",
    "google_place_id": "ChIJKwDPls-j6IgRgHKyTpFSzfg"
  },
  {
    "name": "Canine Assisted Therapy, Inc.",
    "address": "1040 NE 45th St, Oakland Park, FL 33334, USA",
    "phone": "(954) 990-5175",
    "website": "http://www.catdogs.org/",
    "types": [],
    "location": {
      "lat": 26.182944,
      "lng": -80.133133
    },
    "rating": 4.9,
    "user_ratings_total": 13,
    "business_status": "OPERATIONAL",
    "google_place_id": "ChIJ___5ny8C2YgRZIy7nNkmtvE"
  },
  {
    "name": "Equine-Assisted Therapies of South Florida",
    "address": "3601 W Sample Rd, Coconut Creek, FL 33073, USA",
    "phone": "(954) 974-2007",
    "website": "http://www.equineatsf.org/",
    "types": [],
    "location": {
      "lat": 26.2830644,
      "lng": -80.1727121
    },
    "rating": 4.8,
    "user_ratings_total": 62,
    "business_status": "OPERATIONAL",
    "google_place_id": "ChIJbyyVd7oc2YgRypHHMXSEtAA"
  },
  {
    "name": "The Lucky Horse Sanctuary, Inc",
    "address": "4250 NW 43rd St, Coconut Creek, FL 33073, USA",
    "phone": "(561) 860-1404",
    "website": "http://www.theluckyhorsesanctuary.org/",
    "types": [],
    "location": {
      "lat": 26.2815093,
      "lng": -80.18125909999999
    },
    "rating": 4.9,
    "user_ratings_total": 39,
    "business_status": "OPERATIONAL",
    "google_place_id": "ChIJyWpq5Hgd2YgRSs2WhLVoVVs"
  },
  {
    "name": "Pet Companion ESA",
    "address": "5124 Hollywood Blvd, Hollywood, FL 33021, USA",
    "phone": "(954) 607-8993",
    "website": "https://petcompanionesa.com/",
    "types": [],
    "location": {
      "lat": 26.0099875,
      "lng": -80.1955857
    },
    "rating": 5,
    "user_ratings_total": 6,
    "business_status": "OPERATIONAL",
    "google_place_id": "ChIJ-4YBxISp2YgRBKlB_HCienU"
  },
  {
    "name": "ESAnimals",
    "address": "1975 E Sunrise Blvd #860, Fort Lauderdale, FL 33304, USA",
    "phone": "(877) 955-8555",
    "website": "https://esanimals.com/",
    "types": [],
    "location": {
      "lat": 26.1381196,
      "lng": -80.11904229999999
    },
    "rating": 5,
    "user_ratings_total": 73,
    "business_status": "OPERATIONAL",
    "google_place_id": "ChIJ2clsRoKs2YgRPLpJNxM2P3w"
  },
  {
    "name": "United Support Animals",
    "address": "6781 W Sunrise Blvd, Plantation, FL 33313, USA",
    "phone": "(800) 918-3151",
    "website": "https://www.unitedsupportanimals.org/",
    "types": [],
    "location": {
      "lat": 26.1439042,
      "lng": -80.2385879
    },
    "rating": 3.4,
    "user_ratings_total": 46,
    "business_status": "OPERATIONAL",
    "google_place_id": "ChIJa53MFMsJ2YgRV5H5Woc-exE"
  },
  {
    "name": "United Recovery Project - Luxury Rehab in Florida",
    "address": "5900 Johnson St, Hollywood, FL 33021, USA",
    "phone": "(888) 861-8628",
    "website": "https://unitedrecoveryproject.com/",
    "types": [],
    "location": {
      "lat": 26.0174699,
      "lng": -80.20606049999999
    },
    "rating": 4.7,
    "user_ratings_total": 317,
    "business_status": "OPERATIONAL",
    "google_place_id": "ChIJvYRdRGqp2YgRtxIBFV6Up1s"
  },
  {
    "name": "Ally Pets",
    "address": "1700 N University Dr, Coral Springs, FL 33071, USA",
    "phone": "(954) 408-7117",
    "website": "https://myallypets.com/?utm_campaign=gmb",
    "types": [],
    "location": {
      "lat": 26.2518334,
      "lng": -80.2541301
    },
    "rating": null,
    "user_ratings_total": null,
    "business_status": "OPERATIONAL",
    "google_place_id": "ChIJwWtDJTwF2YgRaQr8h40itMc"
  },
  {
    "name": "The Luminous Care",
    "address": "2301 W Sample Rd Bldg 4, Suite 2B, Pompano Beach, FL 33073, USA",
    "phone": "(833) 422-5585",
    "website": "https://www.theluminouscare.com/",
    "types": [],
    "location": {
      "lat": 26.2758189,
      "lng": -80.15429379999999
    },
    "rating": 4.5,
    "user_ratings_total": 223,
    "business_status": "OPERATIONAL",
    "google_place_id": "ChIJzd96cY8d2YgRYWCQ9GJcZAU"
  },
  {
    "name": "Bit-By-Bit Medical Therapeutic Riding Center",
    "address": "3141 SW 118th Terrace, Davie, FL 33330, USA",
    "phone": "(754) 779-7888",
    "website": "http://bitbybittherapy.org/",
    "types": [],
    "location": {
      "lat": 26.080902,
      "lng": -80.3078613
    },
    "rating": 4.6,
    "user_ratings_total": 48,
    "business_status": "OPERATIONAL",
    "google_place_id": "ChIJN0gA1Y-n2YgR6GtCL1BaSjM"
  },
  {
    "name": "Golden Saddles",
    "address": "17490 SW 58th St, Southwest Ranches, FL 33331, USA",
    "phone": "(617) 939-1033",
    "website": "http://gsmiami.com/",
    "types": [],
    "location": {
      "lat": 26.046244,
      "lng": -80.381423
    },
    "rating": 5,
    "user_ratings_total": 7,
    "business_status": "OPERATIONAL",
    "google_place_id": "ChIJpxMA_JbA2YgRnchGCJ9J8Mk"
  },
  {
    "name": "Di Sciascio Equine Solutions",
    "address": "7350 SW 39th St, Davie, FL 33314, USA",
    "phone": "(954) 901-0652",
    "website": "http://disciascioequinesolutions.com/",
    "types": [],
    "location": {
      "lat": 26.071579,
      "lng": -80.2458601
    },
    "rating": null,
    "user_ratings_total": null,
    "business_status": "OPERATIONAL",
    "google_place_id": "ChIJS9wUi5Gp2YgR0jjgqrzBssY"
  },
  {
    "name": "Pompano Beach Sand and Spurs Equestrian Park",
    "address": "1600 NE 5th Ave, Pompano Beach, FL 33060, USA",
    "phone": "(954) 786-4507",
    "website": "https://parks.pompanobeachfl.gov/parks-beach-and-pier/sand-and-spurs-equestrian-park",
    "types": [],
    "location": {
      "lat": 26.2508831,
      "lng": -80.1194763
    },
    "rating": 4.8,
    "user_ratings_total": 35,
    "business_status": "OPERATIONAL",
    "google_place_id": "ChIJscRcfD8D2YgR1E252g-Ylqs"
  },
  {
    "name": "Veterans Multi-Purpose Center",
    "address": "4311 SW 63rd Ave, Davie, FL 33314, USA",
    "phone": "(954) 791-8603",
    "website": "https://vetsmpc.org/",
    "types": [],
    "location": {
      "lat": 26.0673185,
      "lng": -80.2313574
    },
    "rating": null,
    "user_ratings_total": null,
    "business_status": "OPERATIONAL",
    "google_place_id": "ChIJ7YTuJMup2YgRgeQFgbAkWJU"
  },
  {
    "name": "Di Sciascio Equine Solutions, LLC",
    "address": "10251 Orange Dr, Davie, FL 33328, USA",
    "phone": "(954) 901-0652",
    "website": "https://www.disciascioequinesolutions.com/",
    "types": [],
    "location": {
      "lat": 26.0659969,
      "lng": -80.28450509999999
    },
    "rating": 5,
    "user_ratings_total": 51,
    "business_status": "OPERATIONAL",
    "google_place_id": "ChIJGwQyKJ-n2YgRl8W3DD7fawo"
  },
  {
    "name": "Arc Broward",
    "address": "10250 NW 53rd St, Sunrise, FL 33351, USA",
    "phone": "(954) 746-9400",
    "website": "http://www.arcbroward.com/",
    "types": [],
    "location": {
      "lat": 26.1882567,
      "lng": -80.28650209999999
    },
    "rating": 4.6,
    "user_ratings_total": 43,
    "business_status": "OPERATIONAL",
    "google_place_id": "ChIJCxSw2lEP2YgRAAda6Wni_-g"
  },
  {
    "name": "Vinceremos Therapeutic Horsemanship Center",
    "address": "13300 6th Ct N, Loxahatchee, FL 33470, USA",
    "phone": "(561) 792-9900",
    "website": "http://vinceremos.org/",
    "types": [],
    "location": {
      "lat": 26.6871528,
      "lng": -80.2542495
    },
    "rating": 4.7,
    "user_ratings_total": 57,
    "business_status": "OPERATIONAL",
    "google_place_id": "ChIJ37hvL8gv2YgRFkR_PvgUzz8"
  },
  {
    "name": "Hopes Dreams and Horses",
    "address": "10660 Randolph Siding Rd, Jupiter, FL 33478, USA",
    "phone": "(561) 262-3038",
    "website": "http://www.hopesdreamsandhorses.org/",
    "types": [],
    "location": {
      "lat": 26.925577,
      "lng": -80.202856
    },
    "rating": 5,
    "user_ratings_total": 9,
    "business_status": "OPERATIONAL",
    "google_place_id": "ChIJLy3ck1vR3ogRd2dKj27gu5Q"
  },
  {
    "name": "Horses Healing Hearts, Inc.",
    "address": "2300 High Ridge Rd, Boynton Beach, FL 33426, USA",
    "phone": "(561) 713-6133",
    "website": "http://www.horseshealingheartsusa.org/",
    "types": [],
    "location": {
      "lat": 26.5517939,
      "lng": -80.07191159999999
    },
    "rating": 2,
    "user_ratings_total": 2,
    "business_status": "OPERATIONAL",
    "google_place_id": "ChIJMaKaD8ol2YgRH5fUofuxeFg"
  },
  {
    "name": "Equi-Fit Wellness and Rehabilitation",
    "address": "14333 Broken Wing Ln, Palm Beach Gardens, FL 33418, USA",
    "phone": "(561) 768-5830",
    "website": "https://www.equi-fitwr.com/",
    "types": [],
    "location": {
      "lat": 26.8975107,
      "lng": -80.2624925
    },
    "rating": 5,
    "user_ratings_total": 8,
    "business_status": "OPERATIONAL",
    "google_place_id": "ChIJyezk3iDT3ogRyDlUDMfTA2E"
  },
  {
    "name": "Therapeutic Treehouse",
    "address": "7410 Boynton Beach Blvd B-1, Boynton Beach, FL 33437, USA",
    "phone": "(561) 223-1650",
    "website": "http://therapeutictreehouse.com/",
    "types": [],
    "location": {
      "lat": 26.526185,
      "lng": -80.1626248
    },
    "rating": 5,
    "user_ratings_total": 12,
    "business_status": "OPERATIONAL",
    "google_place_id": "ChIJbYp9BqdoRGURJQINkoaCIyo"
  },
  {
    "name": "Official Pets",
    "address": "4700 N Congress Ave Suite 200, West Palm Beach, FL 33407, USA",
    "phone": "(844) 738-7372",
    "website": "https://officialpets.com/",
    "types": [],
    "location": {
      "lat": 26.7630866,
      "lng": -80.0848334
    },
    "rating": 5,
    "user_ratings_total": 330,
    "business_status": "OPERATIONAL",
    "google_place_id": "ChIJvSbKFMild4ERBC9BpdSIOgA"
  },
  {
    "name": "Paws For Compassion",
    "address": "423 Kennedy St, Jupiter, FL 33458, USA",
    "phone": "(561) 768-1066",
    "website": "https://www.pawsforcompassion.com/contact",
    "types": [],
    "location": {
      "lat": 26.9365978,
      "lng": -80.10143769999999
    },
    "rating": 5,
    "user_ratings_total": 3,
    "business_status": "OPERATIONAL",
    "google_place_id": "ChIJVVXBKRzW3ogR8QviJGReUFc"
  },
  {
    "name": "Paws 4 Liberty, Inc.",
    "address": "3574 Dunes Rd, Palm Beach Gardens, FL 33410, USA",
    "phone": "(561) 223-3426",
    "website": "http://paws4liberty.org/",
    "types": [],
    "location": {
      "lat": 26.854255,
      "lng": -80.0894943
    },
    "rating": 4.6,
    "user_ratings_total": 31,
    "business_status": "OPERATIONAL",
    "google_place_id": "ChIJEYwOF-Il2YgR2WYCZ9SKmys"
  },
  {
    "name": "Emotional Support Animal LLC",
    "address": "2809 Poinsettia Ave, West Palm Beach, FL 33407, USA",
    "phone": "(833) 364-4431",
    "website": "http://www.emotionaltherapypet.com/",
    "types": [],
    "location": {
      "lat": 26.7384687,
      "lng": -80.05307959999999
    },
    "rating": null,
    "user_ratings_total": null,
    "business_status": "CLOSED_TEMPORARILY",
    "google_place_id": "ChIJ72ZwhzrV2IgR0HBzxprqlyE"
  },
  {
    "name": "Juno Counseling And Wellness",
    "address": "2401 PGA Blvd #134, Palm Beach Gardens, FL 33410, USA",
    "phone": "(561) 532-7768",
    "website": "https://www.junocounseling.com/",
    "types": [],
    "location": {
      "lat": 26.8461473,
      "lng": -80.07153939999999
    },
    "rating": 5,
    "user_ratings_total": 55,
    "business_status": "OPERATIONAL",
    "google_place_id": "ChIJN4UznU0q34gRq9qOwZD0-H4"
  },
  {
    "name": "Sensory Station Therapy",
    "address": "804 U.S. Rte 1 Suite 8, Lake Park, FL 33403, USA",
    "phone": "(561) 429-6018",
    "website": "http://www.sensorystationtherapy.com/",
    "types": [],
    "location": {
      "lat": 26.7995966,
      "lng": -80.05528350000002
    },
    "rating": 4.9,
    "user_ratings_total": 32,
    "business_status": "OPERATIONAL",
    "google_place_id": "ChIJ683SGB3V2IgRO3KTjcqOWd8"
  },
  {
    "name": "Love Serving Autism",
    "address": "11231 U.S. Rte 1, North Palm Beach, FL 33408, USA",
    "phone": "(561) 331-1903",
    "website": "https://loveservingautism.org/",
    "types": [],
    "location": {
      "lat": 26.8434811,
      "lng": -80.0619398
    },
    "rating": 4.8,
    "user_ratings_total": 11,
    "business_status": "OPERATIONAL",
    "google_place_id": "ChIJq6ru_9wq34gRadivVzxJl1I"
  },
  {
    "name": "Living Soul Autism and ABA",
    "address": "3175 S Congress Ave Suite 204 A, Palm Springs, FL 33461, USA",
    "phone": "(561) 536-5888",
    "website": "https://livingsoulllc.com/",
    "types": [],
    "location": {
      "lat": 26.6294602,
      "lng": -80.0891539
    },
    "rating": 4.7,
    "user_ratings_total": 15,
    "business_status": "OPERATIONAL",
    "google_place_id": "ChIJvc4ZR47Z2IgRr9DjMPnWcc0"
  },
  {
    "name": "My Favorite Therapists",
    "address": "2050 Vista Pkwy, West Palm Beach, FL 33411, USA",
    "phone": "(754) 444-3707",
    "website": "https://myfavoritetherapistswestpalmbeach.com/",
    "types": [],
    "location": {
      "lat": 26.7112002,
      "lng": -80.14743229999999
    },
    "rating": 5,
    "user_ratings_total": 2,
    "business_status": "OPERATIONAL",
    "google_place_id": "ChIJRed06acp2YgRadEvljFoUGA"
  },
  {
    "name": "Palm Beach School For Autism",
    "address": "8480 Lantana Rd, Greenacres, FL 33467, USA",
    "phone": "(561) 533-9917",
    "website": "http://pbsfa.org/",
    "types": [],
    "location": {
      "lat": 26.5897912,
      "lng": -80.18082749999999
    },
    "rating": null,
    "user_ratings_total": null,
    "business_status": "OPERATIONAL",
    "google_place_id": "ChIJWzkPbIQm2YgRbJxNvZOS8jI"
  },
  {
    "name": "Aba Therapy of Palm Beach",
    "address": "1850 Forest Hill Blvd #102, West Palm Beach, FL 33406, USA",
    "phone": "(561) 284-0625",
    "website": "https://www.abatherapyofpalmbeach.com/",
    "types": [],
    "location": {
      "lat": 26.6509497,
      "lng": -80.07841859999999
    },
    "rating": 5,
    "user_ratings_total": 5,
    "business_status": "OPERATIONAL",
    "google_place_id": "ChIJxcqtpGWrVmQRhlJFHA18dvc"
  },
  {
    "name": "Brighten Bay",
    "address": "5300 Dunn Rd, Fort Pierce, FL 34981, USA",
    "phone": "(772) 310-4546",
    "website": "https://brightenbay.com/",
    "types": [],
    "location": {
      "lat": 27.3684944,
      "lng": -80.3619065
    },
    "rating": 5,
    "user_ratings_total": 12,
    "business_status": "OPERATIONAL",
    "google_place_id": "ChIJKfR7OAjv3ogRZX-Wx-C4_6w"
  },
  {
    "name": "Bilingual Key Therapy",
    "address": "1631 St Lucie W Blvd STE 208, Port St. Lucie, FL 34986, USA",
    "phone": "(772) 672-0897",
    "website": "http://www.bilingualkeytherapy.com/",
    "types": [],
    "location": {
      "lat": 27.3134105,
      "lng": -80.39863
    },
    "rating": 4.9,
    "user_ratings_total": 32,
    "business_status": "OPERATIONAL",
    "google_place_id": "ChIJyQJzWFLq3ogRcWSCc4ce-Dc"
  },
  {
    "name": "Intentions Ranch Wellness Center in Nature",
    "address": "18330 SW 66th St Bldg Ranch, Southwest Ranches, FL 33331, USA",
    "phone": "(954) 773-4883",
    "website": "https://intentionsranch.com/",
    "types": [],
    "location": {
      "lat": 26.036311,
      "lng": -80.3925122
    },
    "rating": 5,
    "user_ratings_total": 1,
    "business_status": "OPERATIONAL",
    "google_place_id": "ChIJ__9T0Bah2YgR5-RKmoyj_SM"
  },
  {
    "name": "Equanimity Behavioral Services",
    "address": "701 Promenade Dr #250, Pembroke Pines, FL 33026, USA",
    "phone": "(954) 399-2637",
    "website": "http://equanimitytherapy.com/",
    "types": [],
    "location": {
      "lat": 26.0133738,
      "lng": -80.2806109
    },
    "rating": 4.3,
    "user_ratings_total": 12,
    "business_status": "OPERATIONAL",
    "google_place_id": "ChIJj-FVUTmn2YgR5XwIB9SfxjE"
  },
  {
    "name": "Abacus Therapies - ABA Therapy in Hollywood FL",
    "address": "4000 Hollywood Blvd suite 555-s, Hollywood, FL 33021, USA",
    "phone": "(954) 400-3251",
    "website": "https://abacustherapies.com/aba-therapy/broward/",
    "types": [],
    "location": {
      "lat": 26.0105815,
      "lng": -80.1835833
    },
    "rating": 4.2,
    "user_ratings_total": 15,
    "business_status": "OPERATIONAL",
    "google_place_id": "ChIJrWchxxir2YgRBTYHGJcnHEE"
  },
  {
    "name": "Florida Autism Treatment Center",
    "address": "3501 S University Dr STE 9, Davie, FL 33328, USA",
    "phone": "(954) 533-4845",
    "website": "https://www.behavior-analysis.org/",
    "types": [],
    "location": {
      "lat": 26.0774598,
      "lng": -80.25267269999999
    },
    "rating": null,
    "user_ratings_total": null,
    "business_status": "OPERATIONAL",
    "google_place_id": "ChIJ9bkfzCKo2YgRDJFCaMPMZyU"
  },
  {
    "name": "Horse Force",
    "address": "3102 Thonotosassa Rd, Plant City, FL 33565, USA",
    "phone": "(727) 287-8893",
    "website": "http://grazeacademyinc.org/",
    "types": [],
    "location": {
      "lat": 28.030358,
      "lng": -82.157795
    },
    "rating": 5,
    "user_ratings_total": 10,
    "business_status": "OPERATIONAL",
    "google_place_id": "ChIJ8UMzkyk13YgRo3nSnpjFMxQ"
  },
  {
    "name": "Graze Academy Inc",
    "address": "3102 Thonotosassa Rd, Plant City, FL 33565, USA",
    "phone": "(727) 287-8893",
    "website": "http://www.grazeacademyinc.org/",
    "types": [],
    "location": {
      "lat": 28.0303295,
      "lng": -82.1581111
    },
    "rating": 5,
    "user_ratings_total": 2,
    "business_status": "OPERATIONAL",
    "google_place_id": "ChIJvRIl61w13YgR4tJry4JRHxg"
  },
  {
    "name": "Special Equestrians",
    "address": "5121 Staley Rd, Fort Myers, FL 33905, USA",
    "phone": "(239) 226-1221",
    "website": "https://www.specialequestrians.net/",
    "types": [],
    "location": {
      "lat": 26.669202,
      "lng": -81.773938
    },
    "rating": 4.9,
    "user_ratings_total": 43,
    "business_status": "OPERATIONAL",
    "google_place_id": "ChIJM6dU77Nu24gRVWF9n8YdrVM"
  },
  {
    "name": "Miles of Smiles Foundation",
    "address": "19810 Gottarde Rd, North Fort Myers, FL 33917, North Fort Myers, FL 33917, USA",
    "phone": "(239) 851-0621",
    "website": "https://www.milesranch.org/",
    "types": [],
    "location": {
      "lat": 26.753908,
      "lng": -81.837813
    },
    "rating": 5,
    "user_ratings_total": 3,
    "business_status": "OPERATIONAL",
    "google_place_id": "ChIJJ4Jt_9hn24gR2e_aCQm_VLM"
  },
  {
    "name": "Miles Ranch",
    "address": "19810 Gottarde Rd, North Fort Myers, FL 33917, USA",
    "phone": "(239) 851-0621",
    "website": "https://www.milesranch.org/",
    "types": [],
    "location": {
      "lat": 26.752666,
      "lng": -81.83617199999999
    },
    "rating": 4.3,
    "user_ratings_total": 6,
    "business_status": "OPERATIONAL",
    "google_place_id": "ChIJJ4Jt_9hn24gRaJS9ZhZr2ko"
  },
  {
    "name": "Strides Occupational Therapy",
    "address": "5121 Staley Rd, Fort Myers, FL 33905, USA",
    "phone": "(239) 404-8329",
    "website": "http://www.stridesot.com/",
    "types": [],
    "location": {
      "lat": 26.6690498,
      "lng": -81.77349900000002
    },
    "rating": null,
    "user_ratings_total": null,
    "business_status": "OPERATIONAL",
    "google_place_id": "ChIJM6dU77Nu24gR2dLsQCLforM"
  },
  {
    "name": "My Autism Connection, Inc. (MAC)",
    "address": "7181 College Pkwy Suite 22, Fort Myers, FL 33907, USA",
    "phone": "(239) 288-6070",
    "website": "http://myautismconnection.net/",
    "types": [],
    "location": {
      "lat": 26.5554547,
      "lng": -81.87465159999999
    },
    "rating": 4.5,
    "user_ratings_total": 8,
    "business_status": "OPERATIONAL",
    "google_place_id": "ChIJ6zx5MQJA24gRHaejDNuYLaE"
  },
  {
    "name": "Autism Services of Florida, LLC",
    "address": "12501 World Plaza Ln Building 51, Fort Myers, FL 33907, USA",
    "phone": "(239) 349-3139",
    "website": "http://www.autismserviceoffl.com/",
    "types": [],
    "location": {
      "lat": 26.5605274,
      "lng": -81.8780968
    },
    "rating": 5,
    "user_ratings_total": 5,
    "business_status": "OPERATIONAL",
    "google_place_id": "ChIJwYEVEIlH24gRA1Eh7JbbXSk"
  },
  {
    "name": "Family Psych Central",
    "address": "7450 Griffin Rd STE 250, Davie, FL 33314, USA",
    "phone": "(305) 985-3618",
    "website": "http://www.familypsychcentral.com/#!contact/c24vq",
    "types": [],
    "location": {
      "lat": 26.0643127,
      "lng": -80.24733549999999
    },
    "rating": 5,
    "user_ratings_total": 1,
    "business_status": "OPERATIONAL",
    "google_place_id": "ChIJrVpkaEeo2YgR78kX97dPSgg"
  },
  {
    "name": "Therapies 4 Kids",
    "address": "1311 N Palm Ave, Pembroke Pines, FL 33024, USA",
    "phone": "(954) 719-6280",
    "website": "http://www.therapies4kids.com/",
    "types": [],
    "location": {
      "lat": 26.0193171,
      "lng": -80.2793196
    },
    "rating": 3,
    "user_ratings_total": 40,
    "business_status": "OPERATIONAL",
    "google_place_id": "ChIJRzbYxQSm2YgRwxP-LY4PhXI"
  },
  {
    "name": "Mailman Center for Child Development",
    "address": "1601 NW 12th Ave, Miami, FL 33136, USA",
    "phone": "(305) 243-6631",
    "website": "https://umiamihealth.org/en/locations/mailman-center-for-child-development",
    "types": [],
    "location": {
      "lat": 25.7901958,
      "lng": -80.2142416
    },
    "rating": 2.3,
    "user_ratings_total": 6,
    "business_status": "OPERATIONAL",
    "google_place_id": "ChIJldapHUC32YgR2v7Ln50UwN4"
  },
  {
    "name": "Honor Murphy Physical Therapy Solutions",
    "address": "Bowe Gardens Shopping Center, 2176 Sarno Rd #102, Melbourne, FL 32935, USA",
    "phone": "(321) 421-9144",
    "website": "http://honor-pt.com/",
    "types": [],
    "location": {
      "lat": 28.123264,
      "lng": -80.6568911
    },
    "rating": 5,
    "user_ratings_total": 23,
    "business_status": "OPERATIONAL",
    "google_place_id": "ChIJDW_S29YP3ogR2OUmy3pTahw"
  },
  {
    "name": "The Scott Center for Autism Treatment",
    "address": "3251 Engineering St, Melbourne, FL 32901, USA",
    "phone": "(321) 674-8106",
    "website": "http://www.thescottcenter.org/",
    "types": [],
    "location": {
      "lat": 28.0609088,
      "lng": -80.6220055
    },
    "rating": 4,
    "user_ratings_total": 13,
    "business_status": "OPERATIONAL",
    "google_place_id": "ChIJSxyRfw8S3ogR7syWoq1b8Gk"
  },
  {
    "name": "Eastern Florida Autism Center",
    "address": "1320 Culver Dr NE, Palm Bay, FL 32907, USA",
    "phone": "(321) 914-4055",
    "website": "https://www.efac15.com/",
    "types": [],
    "location": {
      "lat": 28.0320225,
      "lng": -80.6602874
    },
    "rating": null,
    "user_ratings_total": null,
    "business_status": "OPERATIONAL",
    "google_place_id": "ChIJAQDANKEN3ogRRD8sGnJkoRk"
  },
  {
    "name": "Full Spectrum ABA",
    "address": "3790 Dairy Rd Suite 108, Melbourne, FL 32904, USA",
    "phone": "(386) 310-0880",
    "website": "http://www.fullspectrumaba.com/",
    "types": [],
    "location": {
      "lat": 28.0529652,
      "lng": -80.6388758
    },
    "rating": null,
    "user_ratings_total": null,
    "business_status": "OPERATIONAL",
    "google_place_id": "ChIJaVQl0A4N3ogRDRvfX2M2Z5w"
  },
  {
    "name": "Blue Cat Neuropsychology & Intervention PLLC",
    "address": "5200 Babcock St NE Ste 304, Palm Bay, FL 32905, USA",
    "phone": "(321) 209-3344",
    "website": "https://www.bluecatneuro.net/",
    "types": [],
    "location": {
      "lat": 28.0212117,
      "lng": -80.62271849999999
    },
    "rating": 4,
    "user_ratings_total": 8,
    "business_status": "OPERATIONAL",
    "google_place_id": "ChIJ7VWfTVwT3ogRS8P4gkgXHz0"
  },
  {
    "name": "Healing Horses One Child At A Time inc.",
    "address": "28821 Bennington Dr, Wesley Chapel, FL 33544, USA",
    "phone": "(813) 900-6305",
    "website": "https://healinghorsesonechildatatime.com/",
    "types": [],
    "location": {
      "lat": 28.275317,
      "lng": -82.339343
    },
    "rating": 4.6,
    "user_ratings_total": 10,
    "business_status": "OPERATIONAL",
    "google_place_id": "ChIJWVNVZCmuwogRgU4IhWn-Szc"
  },
  {
    "name": "TherHappy Therapy Services",
    "address": "11820 Denton Ave, Hudson, FL 34667, USA",
    "phone": "(727) 862-9101",
    "website": "http://therhappy.org/",
    "types": [],
    "location": {
      "lat": 28.3888997,
      "lng": -82.6194579
    },
    "rating": 4.8,
    "user_ratings_total": 26,
    "business_status": "OPERATIONAL",
    "google_place_id": "ChIJ55l74M6ewogRrFkK803qREY"
  },
  {
    "name": "Emerald M Therapeutic Riding Center",
    "address": "4022 Goldsmith Rd, Brooksville, FL 34602, USA",
    "phone": "(352) 428-1772",
    "website": "http://www.emeraldmtherapeuticridingcenter.org/",
    "types": [],
    "location": {
      "lat": 28.48931,
      "lng": -82.3351552
    },
    "rating": 4.8,
    "user_ratings_total": 38,
    "business_status": "OPERATIONAL",
    "google_place_id": "ChIJqdlxBcSqwogRpOJqrg5TON0"
  },
  {
    "name": "AGES Serenity Center",
    "address": "9249 McKendree Rd, Wesley Chapel, FL 33545, USA",
    "phone": "(813) 785-4459",
    "website": "http://angelofgodequine.org/",
    "types": [],
    "location": {
      "lat": 28.2919798,
      "lng": -82.31803579999999
    },
    "rating": 3.8,
    "user_ratings_total": 6,
    "business_status": "OPERATIONAL",
    "google_place_id": "ChIJd8__TgevwogRQ6GGjtzvJ4s"
  },
  {
    "name": "Hope Youth Ranch d.b.a. Hope Ranch Learning Academy",
    "address": "17933 E Rd, Hudson, FL 34667, USA",
    "phone": "(727) 232-0119",
    "website": "http://www.hoperanchlearningacademy.org/",
    "types": [],
    "location": {
      "lat": 28.4188556,
      "lng": -82.6018524
    },
    "rating": null,
    "user_ratings_total": null,
    "business_status": "OPERATIONAL",
    "google_place_id": "ChIJGY4iyAOfwogRUyBko-G08Hs"
  },
  {
    "name": "JAFCO Children's Village",
    "address": "4200 N University Dr, Sunrise, FL 33351, USA",
    "phone": "(954) 749-7230",
    "website": "http://www.jafco.org/",
    "types": [],
    "location": {
      "lat": 26.1752262,
      "lng": -80.25288119999999
    },
    "rating": 3.8,
    "user_ratings_total": 33,
    "business_status": "OPERATIONAL",
    "google_place_id": "ChIJeYi4aHMG2YgRjBeU4518z8A"
  },
  {
    "name": "HERD Foundation",
    "address": "5135 Conklin Dr, Delray Beach, FL 33484, USA",
    "phone": "(844) 469-4373",
    "website": "https://www.herdfoundation.org/",
    "types": [],
    "location": {
      "lat": 26.4669634,
      "lng": -80.1247364
    },
    "rating": 5,
    "user_ratings_total": 11,
    "business_status": "OPERATIONAL",
    "google_place_id": "ChIJjyFavzwg2YgR-uWH7lJ12_k"
  },
  {
    "name": "TARA FARM",
    "address": "5135 Conklin Dr, Delray Beach, FL 33484, USA",
    "phone": "(561) 665-0083",
    "website": "http://tarafarm.org/",
    "types": [],
    "location": {
      "lat": 26.4669634,
      "lng": -80.1247364
    },
    "rating": 5,
    "user_ratings_total": 3,
    "business_status": "OPERATIONAL",
    "google_place_id": "ChIJjyFavzwg2YgRPPhJ76SY68I"
  },
  {
    "name": "Behavior Analysis Inc",
    "address": "8001 SW 36th St #9, Davie, FL 33328, USA",
    "phone": "(954) 577-7790",
    "website": "https://www.behavior-analysis.org/",
    "types": [],
    "location": {
      "lat": 26.0768536,
      "lng": -80.2539141
    },
    "rating": 5,
    "user_ratings_total": 5,
    "business_status": "OPERATIONAL",
    "google_place_id": "ChIJ5Y62yCKo2YgRohWIxmlmxsY"
  },
  {
    "name": "Personal Ponies",
    "address": "12151 Diamond House Ln, Boca Raton, FL 33498, USA",
    "phone": "(561) 445-4456",
    "website": "http://personalponies-fl.org/",
    "types": [],
    "location": {
      "lat": 26.3815197,
      "lng": -80.2376917
    },
    "rating": 5,
    "user_ratings_total": 9,
    "business_status": "OPERATIONAL",
    "google_place_id": "ChIJGcT1X5sZ2YgRt4ay7EH4XHI"
  },
  {
    "name": "Dr. Derek G. Turesky, P.A.",
    "address": "1489 W Palmetto Park Rd Ste 410-T, Boca Raton, FL 33486, USA",
    "phone": "(561) 235-0733",
    "website": "https://www.mindbodypsychologist.com/",
    "types": [],
    "location": {
      "lat": 26.3527616,
      "lng": -80.1151125
    },
    "rating": 5,
    "user_ratings_total": 14,
    "business_status": "OPERATIONAL",
    "google_place_id": "ChIJdYPY2nMe2YgRJtYTHPlrqsw"
  },
  {
    "name": "Freedom Farm and Therapy Center",
    "address": "8130 66th St N Ste 8, Pinellas Park, FL 33781, USA",
    "phone": "(727) 204-7911",
    "website": "http://freedomfarmfoundation.org/",
    "types": [],
    "location": {
      "lat": 27.8457256,
      "lng": -82.7293322
    },
    "rating": 5,
    "user_ratings_total": 15,
    "business_status": "OPERATIONAL",
    "google_place_id": "ChIJSWwXyVPlwogRPuF7aU3jupE"
  },
  {
    "name": "Coral Oaks",
    "address": "900 W Lake Rd, Palm Harbor, FL 34684, USA",
    "phone": "(727) 787-3333",
    "website": "https://www.fivestarseniorliving.com/communities/fl/palm-harbor/coral-oaks/?utm_source=local_google&utm_medium=organic&utm_campaign=FL_Coral%20Oaks_59164",
    "types": [],
    "location": {
      "lat": 28.0751298,
      "lng": -82.7358289
    },
    "rating": 4.3,
    "user_ratings_total": 46,
    "business_status": "OPERATIONAL",
    "google_place_id": "ChIJH8YziZ3ywogRhsEqC3XNEC8"
  },
  {
    "name": "Ladybug Farm Sanctuary, Inc.",
    "address": "12536 Tyler Run Ave, Odessa, FL 33556, USA",
    "phone": "(727) 642-1917",
    "website": "https://ladybugfarmsanctuary.com/",
    "types": [],
    "location": {
      "lat": 28.1503376,
      "lng": -82.63437449999999
    },
    "rating": 5,
    "user_ratings_total": 3,
    "business_status": "OPERATIONAL",
    "google_place_id": "ChIJZxtILACVwogRl6wstBMi_Qw"
  }
]